airpt,pax,flights,airpt_iata,airpt_lat,airpt_lon,airpt_name
LEMD,167574,2833,MAD,40.471926,-3.56264,Adolfo Suárez Madrid–Barajas Airport
EGKK,83108,371,LGW,51.148102,-0.190278,London Gatwick Airport
LEBL,80594,1570,BCN,41.2971,2.0784599999999998,Barcelona International Airport
EBBR,78163,584,BRU,50.9014015198,4.48443984985,Brussels Airport
EGCC,66782,314,MAN,53.35369873046875,-2.2749500274658203,Manchester Airport
EDDL,61178,391,DUS,51.289501,6.766780000000001,Düsseldorf Airport
EGBB,42286,236,BHX,52.4538993835,-1.7480299472799998,Birmingham International Airport
LEPA,41903,320,PMI,39.551700591999996,2.73881006241,Palma De Mallorca Airport
EDDF,29504,176,FRA,50.033333,8.570556,Frankfurt am Main Airport
