airpt,pax,flights,airpt_iata,airpt_lat,airpt_lon,airpt_name
LEBL,3998660,40630,BCN,41.2971,2.0784599999999998,Barcelona International Airport
LEPA,1408206,13289,PMI,39.551700591999996,2.73881006241,Palma De Mallorca Airport
GCLP,1273976,9128,LPA,27.931900024414066,-15.38659954071045,Gran Canaria Airport
LEMG,1153250,10826,AGP,36.67490005493164,-4.499110221862793,Málaga Airport
EGLL,1112994,9888,LHR,51.4706,-0.461941,London Heathrow Airport
LFPG,1007426,9930,CDG,49.012798,2.55,Charles de Gaulle International Airport
GCXO,862273,6021,TFN,28.4827003479,-16.341499328599998,Tenerife Norte Airport
LIRF,817731,6637,FCO,41.800277799999996,12.238888900000001,Leonardo da Vinci–Fiumicino Airport
EHAM,775601,6862,AMS,52.308601,4.76389,Amsterdam Airport Schiphol
LEVC,753572,10402,VLC,39.4893,-0.481625,Valencia Airport
LEBB,750092,8761,BIO,43.30110168457031,-2.9106099605560303,Bilbao Airport
EDDF,707137,7544,FRA,50.033333,8.570556,Frankfurt am Main Airport
EBBR,694850,6556,BRU,50.9014015198,4.48443984985,Brussels Airport
LPPT,694770,10275,LIS,38.7813,-9.13592,Humberto Delgado Airport (Lisbon Portela Airport)
LEAL,658818,6414,ALC,38.28219985961914,-0.5581560134887695,Alicante International Airport
LEST,644000,6850,SCQ,42.89630126953125,-8.415140151977539,Santiago de Compostela Airport
GCTS,627215,4261,TFS,28.044500351,-16.5725002289,Tenerife South Airport
LFPO,624405,5717,ORY,48.7233333,2.3794444,Paris-Orly Airport
LEVX,563146,6438,VGO,42.2318000793457,-8.62677001953125,Vigo Airport
LIMC,518296,5505,MXP,45.6306,8.728110000000001,Malpensa International Airport
LEAS,514064,5832,OVD,43.5635986328125,-6.0346198081970215,Asturias Airport
GCRR,483461,3379,ACE,28.945498999999998,-13.6052,Lanzarote Airport
LEZL,447431,4322,SVQ,37.41799926757813,-5.8931097984313965,Sevilla Airport
MUHA,444172,1748,HAV,22.989200592041016,-82.40910339355469,José Martí International Airport
SAEZ,434728,1940,EZE,-34.8222,-58.5358,Ministro Pistarini International Airport
LECO,399787,4070,LCG,43.302101,-8.37726,A Coruña Airport
EGKK,345083,3713,LGW,51.148102,-0.190278,London Gatwick Airport
EDDM,335167,4202,MUC,48.353802,11.7861,Munich Airport
MMMX,334794,1523,MEX,19.4363,-99.072098,Licenciado Benito Juarez International Airport
LSZH,315303,4210,ZRH,47.464698999999996,8.54917,Zürich Airport
LEIB,314789,3619,IBZ,38.8728981018,1.3731199502899998,Ibiza Airport
KMIA,307297,2187,MIA,25.79319953918457,-80.29060363769531,Miami International Airport
KJFK,295683,1577,JFK,40.63980103,-73.77890015,John F Kennedy International Airport
SVMI,292519,1890,CCS,10.601194,-66.991222,Simón Bolívar International Airport
LEJR,288912,3050,XRY,36.74459838867188,-6.060110092163086,Jerez Airport
SBGR,270063,1463,GRU,-23.435556411743164,-46.47305679321289,Guarulhos - Governador André Franco Montoro International Airport
MDSD,247166,1247,SDQ,18.42970085144,-69.668899536133,Las Américas International Airport
GCFV,233913,1904,FUE,28.452699661254886,-13.863800048828125,Fuerteventura Airport
LEPP,227706,3950,PNA,42.77000045776367,-1.6463299989700315,Pamplona Airport
EKCH,212793,2203,CPH,55.617900848389,12.656000137328999,Copenhagen Kastrup Airport
LSGG,212064,4184,GVA,46.23809814453125,6.108950138092041,Geneva Cointrin International Airport
LEXJ,196385,5481,SDR,43.427101135253906,-3.82000994682312,Santander Airport
LESO,191227,3573,EAS,43.35649871826172,-1.7906099557876587,San Sebastian Airport
LEGR,189027,2462,GRX,37.18870162963867,-3.777359962463379,Federico Garcia Lorca Airport
EGGW,181725,1537,LTN,51.87469863891602,-0.36833301186561584,London Luton Airport
EDDL,177435,3004,DUS,51.289501,6.766780000000001,Düsseldorf Airport
LPPR,172328,4277,OPO,41.248100280799996,-8.68138980865,Francisco de Sá Carneiro Airport
MMUN,167324,984,CUN,21.036500930800003,-86.8770980835,Cancún International Airport
LIPZ,161840,2189,VCE,45.505299,12.3519,Venice Marco Polo Airport
SPIM,158128,747,LIM,-12.0219,-77.114305,Jorge Chávez International Airport
LEMH,158040,1918,MAH,39.86259841918945,4.2186498641967765,Menorca Airport
MDPC,156663,586,PUJ,18.567399978599997,-68.36340332030001,Punta Cana International Airport
EIDW,151230,1484,DUB,53.421299,-6.27007,Dublin Airport
LIML,148597,1576,LIN,45.445099,9.27674,Milano Linate Airport
KEWR,148256,651,EWR,40.69250106811523,-74.168701171875,Newark Liberty International Airport
LGAT,141201,1691,HEW,37.893299,23.726101,Athen Helenikon Airport
LEAM,137171,3401,LEI,36.84389877319336,-2.3701000213623047,Almería International Airport
LFLL,134900,4113,LYS,45.725556,5.081111,Lyon Saint-Exupéry Airport
ESSA,133407,1805,ARN,59.651901245116996,17.918600082397,Stockholm-Arlanda Airport
KORD,130224,722,ORD,41.9786,-87.9048,Chicago O'Hare International Airport
LOWW,127922,1517,VIE,48.110298156738004,16.569700241089002,Vienna International Airport
LFMN,116604,4608,NCE,43.658401489300005,7.215869903560001,Nice-Côte d'Azur Airport
LKPR,114953,985,PRG,50.1008,14.26,Václav Havel Airport Prague
KATL,114806,725,ATL,33.6367,-84.428101,Hartsfield Jackson Atlanta International Airport
KPHL,110644,689,PHL,39.87189865112305,-75.24109649658203,Philadelphia International Airport
GMMN,104340,1421,CMN,33.36750030517578,-7.589970111846924,Mohammed V International Airport
SBGL,98341,985,GIG,-22.809999465900002,-43.2505569458,Rio Galeão – Tom Jobim International Airport
LEZG,97843,2908,ZAZ,41.66619873046875,-1.0415500402450562,Zaragoza Air Base
HECA,94829,827,CAI,30.12190055847168,31.40559959411621,Cairo International Airport
FAJS,94701,497,JNB,-26.1392,28.246,OR Tambo International Airport
EGGP,92927,730,LPL,53.33359909057617,-2.849720001220703,Liverpool John Lennon Airport
LLBG,86035,1153,TLV,32.011398315429695,34.88669967651367,Ben Gurion International Airport
LTBA,83740,1018,ISL,40.976898,28.8146,Atatürk International Airport
SEQU,81368,712,,-0.141144007444,-78.4881973267,Mariscal Sucre International Airport
GCLA,80829,770,SPC,28.626499,-17.7556,La Palma Airport
LFBO,80133,2947,TLS,43.629101,1.36382,Toulouse-Blagnac Airport
CYYZ,78953,459,YYZ,43.6772003174,-79.63059997559999,Lester B. Pearson International Airport
TJSJ,78521,725,SJU,18.4393997192,-66.0018005371,Luis Munoz Marin International Airport
