airpt,value,airpt_iata,airpt_lat,airpt_lon,airpt_name
GCXO,522370,TFN,28.4827003479,-16.341499328599998,Tenerife Norte Airport
GCLP,89737,LPA,27.931900024414066,-15.38659954071045,Gran Canaria Airport
LEMD,81514,MAD,40.471926,-3.56264,Adolfo Suárez Madrid–Barajas Airport
EHAM,45305,AMS,52.308601,4.76389,Amsterdam Airport Schiphol
EDDM,45123,MUC,48.353802,11.7861,Munich Airport
EDDL,30167,DUS,51.289501,6.766780000000001,Düsseldorf Airport
EDDF,28031,FRA,50.033333,8.570556,Frankfurt am Main Airport
EDDS,21639,STR,48.6898994446,9.22196006775,Stuttgart Airport
